% program   : RTKPOST-EX 2.5.0
% inp file  : D:\学科\组合导航（3学分）\作业\2025年度《组合导航》第三次作业\2025组合导航第三次作业\MOV.24o
% inp file  : D:\学科\组合导航（3学分）\作业\2025年度《组合导航》第三次作业\2025组合导航第三次作业\CSKC300*B.24o
% inp file  : D:\学科\组合导航（3学分）\作业\2025年度《组合导航》第三次作业\2025组合导航第三次作业\BRDC00IGS_R_20243000000_01D_MN.rnx\BRDC00IGS_R_20243000000_01D_MN.rnx
% obs start : 2024/10/26 01:13:08.0 GPST (week2337 522788.0s)
% obs end   : 2024/10/26 03:28:55.0 GPST (week2337 530935.0s)
% pos mode  : Kinematic
% freqs     : L1+L2/E5b+L5+L6
% solution  : Forward
% elev mask : 15.0 deg
% dynamics  : on
% tidecorr  :
% ionos opt : Broadcast
% tropo opt : Saastamoinen
% ephemeris : Broadcast
% navi sys  : GPS BDS
% amb res   : Fix and Hold
% amb bds   : on
% val thres : 3.0
% antenna1  :                       ( 0.0000  0.0000  0.0000)
% antenna2  :                       ( 0.0000  0.0000  0.0000)
% ref pos   :  28.182575430  112.996541340    63.0388
%
% (lat/lon/height=WGS84/ellipsoidal,Q=1:fix,2:float,3:sbas,4:dgps,5:single,6:ppp,ns=# of satellites)
%  GPST          latitude(deg) longitude(deg)  height(m)   Q  ns   sdn(m)   sde(m)   sdu(m)  sdne(m)  sdeu(m)  sdun(m) age(s)  ratio    vn(m/s)    ve(m/s)    vu(m/s)      sdvn     sdve     sdvu    sdvne    sdveu    sdvun
2337 522788.000   28.079277944  112.983590361    39.2395   4   3   0.4992   0.8927   1.4593   0.6670   1.1412   0.8532   0.00   15.4   -0.01781   -0.00820   -0.01543   6.40978  6.57926  3.60515  1.33570  2.28631  1.70851
2337 522788.996   28.079277507  112.983590350    39.2213   1   7   0.0232   0.0086   0.0298   0.0069   0.0116   0.0228   0.00   15.4    0.07468    0.00050    0.04318   6.36415  6.36401  2.12255  0.01018  0.02857  0.04454
2337 522789.996   28.079277989  112.983590398    39.2629   1  14   0.0050   0.0062   0.0151  -0.0034   0.0062  -0.0037   0.00    8.3    0.00106    0.00396    0.01110   6.36398  6.36399  2.12189 -0.01020  0.01932 -0.01093
2337 522790.996   28.079277994  112.983590413    39.2652   1  15   0.0047   0.0050   0.0144  -0.0028   0.0055  -0.0030   0.00    8.0   -0.00252   -0.00004   -0.01073   6.36398  6.36398  2.12187 -0.00938  0.01852 -0.00990
2337 522791.996   28.079277986  112.983590408    39.2619   1  15   0.0047   0.0050   0.0144  -0.0028   0.0055  -0.0030   0.00    8.0    0.00066   -0.00530    0.01319   6.36398  6.36398  2.12184 -0.00901  0.01818 -0.00871
2337 522792.996   28.079277973  112.983590404    39.2710   1  15   0.0046   0.0050   0.0137  -0.0026   0.0053  -0.0024   0.00    6.8    0.00054    0.00615    0.00865   6.36398  6.36398  2.12174 -0.00788  0.01783 -0.00529
2337 522793.996   28.079277996  112.983590396    39.2674   1  17   0.0042   0.0047   0.0118  -0.0022   0.0053  -0.0007   0.00    5.8    0.00215   -0.00521   -0.02241   6.36398  6.36398  2.12169 -0.00664  0.01782 -0.00343
2337 522794.996   28.079278012  112.983590371    39.2585   1  18   0.0038   0.0046   0.0118  -0.0018   0.0053  -0.0012   0.00    5.8   -0.00082    0.00151    0.01033   6.36397  6.36398  2.12169 -0.00617  0.01785 -0.00375
2337 522795.996   28.079278009  112.983590381    39.2643   1  18   0.0038   0.0046   0.0118  -0.0018   0.0053  -0.0012   0.00    5.8    0.00054    0.00284    0.00215   6.36397  6.36398  2.12169 -0.00617  0.01785 -0.00396
2337 522796.996   28.079278013  112.983590391    39.2657   1  18   0.0038   0.0046   0.0118  -0.0018   0.0053  -0.0012   0.00    5.8   -0.00131    0.00022   -0.00423   6.36397  6.36398  2.12169 -0.00617  0.01785 -0.00396
2337 522797.996   28.079278011  112.983590386    39.2652   1  18   0.0038   0.0046   0.0118  -0.0018   0.0053  -0.0012   0.00    5.8    0.00202   -0.00486    0.00763   6.36397  6.36398  2.12169 -0.00579  0.01815 -0.00449
2337 522798.996   28.079278025  112.983590357    39.2703   1  18   0.0037   0.0045   0.0117  -0.0016   0.0054  -0.0014   0.00    5.7    0.00126    0.00021    0.00057   6.36397  6.36398  2.12168 -0.00554  0.01830 -0.00439
2337 522799.996   28.079278050  112.983590362    39.2698   1  18   0.0036   0.0045   0.0117  -0.0016   0.0054  -0.0012   0.00    4.8    0.00153    0.00338    0.00945   6.36397  6.36398  2.12168 -0.00555  0.01821 -0.00388
2337 522800.996   28.079278050  112.983590380    39.2752   1  18   0.0036   0.0045   0.0116  -0.0016   0.0054  -0.0011   0.00    4.7   -0.00339    0.00080   -0.01015   6.36397  6.36398  2.12166 -0.00616  0.01757 -0.00689
2337 522801.996   28.079278016  112.983590373    39.2666   1  19   0.0032   0.0044   0.0110  -0.0019   0.0051  -0.0024   0.00    4.2    0.00062   -0.00812    0.00592   6.36397  6.36398  2.12165 -0.00642  0.01717 -0.00817
2337 522802.996   28.079278020  112.983590344    39.2688   1  19   0.0032   0.0044   0.0110  -0.0019   0.0051  -0.0024   0.00    4.2    0.00107    0.01050    0.00287   6.36397  6.36398  2.12165 -0.00647  0.01720 -0.00810
2337 522803.996   28.079278023  112.983590389    39.2683   1  19   0.0032   0.0044   0.0110  -0.0019   0.0051  -0.0024   0.00    4.2   -0.00057   -0.00214   -0.00580   6.36397  6.36398  2.12165 -0.00642  0.01717 -0.00819
2337 522804.996   28.079278021  112.983590371    39.2641   1  19   0.0032   0.0044   0.0110  -0.0019   0.0051  -0.0024   0.00    4.2   -0.00035   -0.00654   -0.00548   6.36397  6.36398  2.12165 -0.00645  0.01719 -0.00812
2337 522805.996   28.079278019  112.983590345    39.2608   1  19   0.0032   0.0044   0.0110  -0.0019   0.0051  -0.0024   0.00    4.2    0.00018    0.00419   -0.01339   6.36398  6.36398  2.12165 -0.00645  0.01719 -0.00817
2337 522806.996   28.079278020  112.983590365    39.2566   1  19   0.0032   0.0044   0.0110  -0.0019   0.0051  -0.0024   0.00    4.2   -0.00151    0.00157    0.01768   6.36401  6.36402  2.12166 -0.00609  0.01719 -0.00812
2337 522807.996   28.079278009  112.983590371    39.2648   1  19   0.0030   0.0043   0.0110  -0.0017   0.0051  -0.0024   0.00    4.2   -0.00170   -0.00123   -0.01707   6.36437  6.36438  2.12178 -0.00588  0.01717 -0.00805
2337 522808.996   28.079278011  112.983590360    39.2595   1  19   0.0030   0.0043   0.0110  -0.0017   0.0051  -0.0024   0.00    4.2    0.01289   -0.00250    0.02092   6.36762  6.36763  2.12286 -0.00585  0.01713 -0.00802
2337 522809.996   28.079278053  112.983590346    39.2695   1  19   0.0030   0.0043   0.0110  -0.0017   0.0051  -0.0024   0.00    4.2   -0.01298   -0.00365   -0.00477   6.39674  6.39675  2.13257 -0.00582  0.01711 -0.00807
2337 522811.000   28.079278000  112.983590335    39.2676   1  19   0.0030   0.0043   0.0110  -0.0017   0.0051  -0.0024   0.00    4.1    0.00254    0.00524   -0.00072   6.36397  6.36398  2.12164 -0.00585  0.01714 -0.00802
2337 522812.000   28.079278015  112.983590359    39.2683   1  19   0.0030   0.0043   0.0110  -0.0017   0.0051  -0.0024   0.00    4.1    0.00036   -0.00327    0.00340   6.36397  6.36398  2.12164 -0.00588  0.01716 -0.00802
2337 522813.000   28.079278021  112.983590348    39.2707   1  19   0.0030   0.0043   0.0110  -0.0017   0.0051  -0.0024   0.00    4.1    0.00281    0.00285    0.00784   6.36397  6.36398  2.12163 -0.00600  0.01678 -0.00854
2337 522814.000   28.079278032  112.983590360    39.2728   1  19   0.0029   0.0043   0.0107  -0.0018   0.0049  -0.0026   0.00    4.1    0.00039    0.00633    0.01007   6.36397  6.36398  2.12163 -0.00613  0.01658 -0.00871
2337 522815.000   28.079278032  112.983590377    39.2739   1  19   0.0029   0.0043   0.0107  -0.0018   0.0049  -0.0026   0.00    4.1    0.00138   -0.01233   -0.02875   6.36397  6.36398  2.12163 -0.00607  0.01657 -0.00872
2337 522816.000   28.079278032  112.983590323    39.2608   1  19   0.0029   0.0043   0.0107  -0.0018   0.0049  -0.0026   0.00    4.1   -0.00269    0.00666    0.00545   6.36397  6.36398  2.12163 -0.00610  0.01658 -0.00868
2337 522817.000   28.079278018  112.983590352    39.2641   1  19   0.0029   0.0043   0.0107  -0.0018   0.0049  -0.0026   0.00    4.1   -0.00251   -0.00557    0.00100   6.36397  6.36398  2.12163 -0.00613  0.01658 -0.00869
2337 522818.000   28.079278009  112.983590331    39.2653   1  19   0.0029   0.0043   0.0107  -0.0018   0.0049  -0.0026   0.00    4.1    0.00138    0.00530    0.00910   6.36397  6.36398  2.12163 -0.00613  0.01658 -0.00869
2337 522819.000   28.079278016  112.983590356    39.2685   1  19   0.0029   0.0043   0.0107  -0.0018   0.0049  -0.0026   0.00    4.0    0.00360   -0.00194   -0.01247   6.36397  6.36398  2.12163 -0.00613  0.01658 -0.00869
2337 522820.000   28.079278024  112.983590347    39.2635   1  19   0.0029   0.0043   0.0107  -0.0018   0.0049  -0.0026   0.00    4.0   -0.00582   -0.00134    0.00160   6.36397  6.36398  2.12163 -0.00613  0.01658 -0.00869
2337 522821.000   28.079277999  112.983590346    39.2657   1  19   0.0029   0.0043   0.0107  -0.0018   0.0049  -0.0026   0.00    4.0   -0.00099    0.00257    0.01265   6.36397  6.36398  2.12163 -0.00613  0.01658 -0.00869
2337 522822.000   28.079277999  112.983590361    39.2710   1  19   0.0029   0.0043   0.0107  -0.0018   0.0049  -0.0026   0.00    4.0    0.00421    0.00414   -0.00913   6.36397  6.36398  2.12163 -0.00613  0.01658 -0.00869
2337 522823.000   28.079278016  112.983590374    39.2671   1  19   0.0029   0.0043   0.0107  -0.0018   0.0049  -0.0026   0.00    4.0    0.00169   -0.00413    0.01530   6.36397  6.36398  2.12163 -0.00613  0.01658 -0.00869
2337 522824.000   28.079278016  112.983590352    39.2720   1  19   0.0029   0.0043   0.0107  -0.0018   0.0049  -0.0026   0.00    4.0   -0.00453    0.00243   -0.01864   6.36397  6.36398  2.12163 -0.00613  0.01658 -0.00869
2337 522825.000   28.079277993  112.983590357    39.2635   1  19   0.0021   0.0030   0.0076  -0.0013   0.0035  -0.0018   0.00    4.6   -0.00476    0.00159   -0.01720   2.71362  2.71364  0.90515 -0.00567  0.01535 -0.00806
2337 522826.000   28.079277981  112.983590333    39.2658   1  19   0.0021   0.0030   0.0076  -0.0013   0.0035  -0.0018   0.00    4.6   -0.00046   -0.00370    0.00786   0.93834  0.93837  0.31382 -0.00433  0.01173 -0.00615
2337 522827.000   28.079278012  112.983590343    39.2645   1  19   0.0021   0.0030   0.0076  -0.0013   0.0035  -0.0018   0.00    4.6    0.00635    0.00383   -0.00597   0.58593  0.58601  0.19828 -0.00582  0.01574 -0.00826
2337 522828.000   28.079277979  112.983590330    39.2616   1  19   0.0021   0.0030   0.0076  -0.0013   0.0035  -0.0018   0.00    4.6   -0.01137   -0.00488   -0.00134   0.46184  0.46201  0.15970 -0.00724  0.01954 -0.01025
2337 522829.000   28.079277999  112.983590329    39.2632   1  19   0.0021   0.0030   0.0076  -0.0013   0.0035  -0.0018   0.00    4.6    0.01297    0.00363    0.00433   0.39340  0.39367  0.14006 -0.00841  0.02264 -0.01188
2337 522830.000   28.079278006  112.983590325    39.2657   1  19   0.0021   0.0030   0.0076  -0.0013   0.0035  -0.0018   0.00    4.6   -0.00894   -0.00350    0.00116   0.34856  0.34893  0.12847 -0.00941  0.02522 -0.01323
2337 522831.000   28.079278004  112.983590313    39.2624   1  19   0.0021   0.0030   0.0076  -0.0013   0.0035  -0.0018   0.00    4.6    0.00697    0.00063   -0.00733   0.31629  0.31678  0.12111 -0.01029  0.02742 -0.01439
2337 522832.000   28.079277993  112.983590340    39.2639   1  19   0.0021   0.0030   0.0076  -0.0013   0.0035  -0.0018   0.00    4.6   -0.00824    0.00453    0.00904   0.29165  0.29226  0.11624 -0.01107  0.02932 -0.01538
2337 522833.000   28.079278004  112.983590338    39.2662   1  19   0.0021   0.0030   0.0076  -0.0013   0.0035  -0.0018   0.00    4.6    0.00957   -0.00444   -0.00326   0.27205  0.27280  0.11295 -0.01177  0.03098 -0.01626
2337 522834.000   28.079278004  112.983590343    39.2669   1  19   0.0021   0.0030   0.0076  -0.0013   0.0035  -0.0018   0.00    4.6   -0.00865    0.00480    0.00382   0.25600  0.25688  0.11069 -0.01242  0.03244 -0.01702
2337 522835.000   28.079277999  112.983590336    39.2609   1  19   0.0021   0.0030   0.0076  -0.0013   0.0035  -0.0018   0.00    4.6    0.00675   -0.00542   -0.01474   0.24254  0.24356  0.10913 -0.01302  0.03372 -0.01769
2337 522836.000   28.079278007  112.983590334    39.2645   1  19   0.0021   0.0030   0.0076  -0.0013   0.0035  -0.0018   0.00    4.6   -0.00431    0.00427    0.01959   0.23106  0.23221  0.10803 -0.01357  0.03485 -0.01828
2337 522837.000   28.079278003  112.983590308    39.2582   1  19   0.0021   0.0030   0.0076  -0.0013   0.0035  -0.0018   0.00    4.6    0.00290   -0.00860   -0.02863   0.22111  0.22241  0.10726 -0.01408  0.03584 -0.01881
2337 522838.000   28.079277999  112.983590313    39.2647   1  19   0.0021   0.0030   0.0076  -0.0013   0.0035  -0.0018   0.00    4.6   -0.00335    0.00855    0.03688   0.21239  0.21383  0.10672 -0.01456  0.03672 -0.01927
2337 522839.000   28.079277995  112.983590341    39.2639   1  19   0.0021   0.0030   0.0076  -0.0013   0.0035  -0.0018   0.00    4.5    0.00218   -0.00189   -0.03303   0.20468  0.20626  0.10633 -0.01502  0.03751 -0.01968
2337 522840.000   28.079278013  112.983590319    39.2629   1  19   0.0021   0.0030   0.0076  -0.0013   0.0035  -0.0018   0.00    4.5    0.00187   -0.00327    0.02592   0.19779  0.19952  0.10606 -0.01545  0.03820 -0.02004
2337 522841.000   28.079277984  112.983590347    39.2654   1  19   0.0021   0.0030   0.0076  -0.0013   0.0035  -0.0018   0.00    4.5   -0.00808    0.00901   -0.01688   0.19160  0.19347  0.10586 -0.01586  0.03882 -0.02037
2337 522842.000   28.079277987  112.983590314    39.2595   1  19   0.0021   0.0030   0.0076  -0.0013   0.0035  -0.0018   0.00    4.5    0.00842   -0.01514    0.00261   0.18599  0.18801  0.10572 -0.01625  0.03937 -0.02066
2337 522843.000   28.079277996  112.983590313    39.2561   1  19   0.0021   0.0030   0.0076  -0.0013   0.0035  -0.0018   0.00    4.5   -0.00604    0.01420   -0.00834   0.18089  0.18306  0.10562 -0.01662  0.03986 -0.02092
2337 522844.000   28.079277985  112.983590323    39.2621   1  19   0.0021   0.0030   0.0076  -0.0013   0.0035  -0.0018   0.00    4.5    0.00324   -0.01159    0.01877   0.17622  0.17854  0.10555 -0.01697  0.04031 -0.02115
2337 522845.000   28.079277995  112.983590317    39.2571   1  19   0.0021   0.0030   0.0076  -0.0013   0.0035  -0.0018   0.00    4.5   -0.00101    0.01016   -0.02595   0.17193  0.17440  0.10549 -0.01731  0.04070 -0.02136
2337 522846.000   28.079277986  112.983590354    39.2662   1  19   0.0021   0.0030   0.0076  -0.0013   0.0035  -0.0018   0.00    4.5   -0.00078   -0.00313    0.03971   0.16798  0.17059  0.10545 -0.01764  0.04106 -0.02155
2337 522847.000   28.079277981  112.983590346    39.2645   1  19   0.0021   0.0030   0.0076  -0.0013   0.0035  -0.0018   0.00    4.5   -0.00047    0.00213   -0.03741   0.16432  0.16708  0.10542 -0.01796  0.04139 -0.02172
2337 522848.000   28.079277978  112.983590342    39.2638   1  19   0.0021   0.0030   0.0076  -0.0013   0.0035  -0.0018   0.00    4.5    0.00002   -0.00356    0.03018   0.16093  0.16383  0.10540 -0.01827  0.04168 -0.02187
2337 522849.000   28.079277997  112.983590323    39.2624   1  20   0.0021   0.0027   0.0068  -0.0011   0.0027  -0.0016   0.00    4.5    0.00297    0.00507   -0.01679   0.15777  0.16082  0.10538 -0.01857  0.04195 -0.02201
2337 522850.000   28.079277993  112.983590314    39.2555   1  20   0.0021   0.0026   0.0066  -0.0011   0.0025  -0.0015   0.00    4.5   -0.00369   -0.00683    0.00097   0.15480  0.15772  0.10273 -0.01836  0.03940 -0.02111
2337 522851.000   28.079277987  112.983590311    39.2599   1  20   0.0021   0.0026   0.0065  -0.0011   0.0024  -0.0014   0.00    4.5    0.00232    0.00607    0.00809   0.15204  0.15486  0.10086 -0.01826  0.03748 -0.02047
2337 522852.000   28.079277987  112.983590302    39.2580   1  20   0.0021   0.0026   0.0064  -0.0011   0.0024  -0.0014   0.00    4.5   -0.00221   -0.00773   -0.01169   0.14944  0.15222  0.09951 -0.01825  0.03599 -0.02000
2337 522853.000   28.079277994  112.983590315    39.2607   1  20   0.0021   0.0026   0.0064  -0.0011   0.0023  -0.0014   0.00    4.5    0.00359    0.00961    0.01522   0.14700  0.14975  0.09853 -0.01828  0.03482 -0.01967
2337 522854.000   28.079277980  112.983590298    39.2581   1  20   0.0021   0.0025   0.0064  -0.0011   0.0023  -0.0014   0.00    4.5   -0.00669   -0.01204   -0.01780   0.14471  0.14745  0.09780 -0.01836  0.03390 -0.01942
2337 522855.000   28.079277986  112.983590317    39.2587   1  20   0.0021   0.0025   0.0064  -0.0011   0.0023  -0.0014   0.00    4.4    0.00802    0.01505    0.01666   0.14255  0.14530  0.09726 -0.01846  0.03317 -0.01925
2337 522856.000   28.079277979  112.983590315    39.2586   1  20   0.0021   0.0025   0.0064  -0.0011   0.0023  -0.0014   0.00    4.4   -0.00938   -0.01466   -0.01435   0.14051  0.14327  0.09686 -0.01858  0.03258 -0.01912
2337 522857.000   28.079277986  112.983590310    39.2613   1  20   0.0021   0.0025   0.0064  -0.0011   0.0023  -0.0014   0.00    4.4    0.01058    0.01300    0.01754   0.13858  0.14137  0.09656 -0.01872  0.03212 -0.01903
2337 522858.000   28.079277983  112.983590303    39.2573   1  20   0.0021   0.0025   0.0063  -0.0011   0.0023  -0.0014   0.00    4.4   -0.01102   -0.01379   -0.02319   0.13676  0.13957  0.09634 -0.01887  0.03176 -0.01897
2337 522859.000   28.079277978  112.983590309    39.2583   1  20   0.0021   0.0025   0.0063  -0.0011   0.0023  -0.0014   0.00    4.4    0.00987    0.01431    0.02226   0.13502  0.13788  0.09617 -0.01903  0.03147 -0.01894
2337 522860.000   28.079277988  112.983590317    39.2612   1  20   0.0021   0.0025   0.0063  -0.0011   0.0023  -0.0014   0.00    4.4   -0.00740   -0.01225   -0.01404   0.13338  0.13628  0.09604 -0.01919  0.03125 -0.01892
2337 522861.000   28.079277991  112.983590321    39.2575   1  20   0.0021   0.0025   0.0063  -0.0011   0.0023  -0.0014   0.00    4.4    0.00771    0.01246    0.00478   0.13182  0.13477  0.09594 -0.01936  0.03108 -0.01891
2337 522862.000   28.079277983  112.983590310    39.2557   1  20   0.0021   0.0025   0.0063  -0.0011   0.0023  -0.0014   0.00    4.4   -0.00908   -0.01428   -0.00771   0.13034  0.13333  0.09587 -0.01953  0.03094 -0.01891
2337 522863.000   28.079277977  112.983590324    39.2575   1  20   0.0021   0.0025   0.0063  -0.0011   0.0022  -0.0014   0.00    4.4    0.00746    0.01642    0.01034   0.12892  0.13197  0.09582 -0.01971  0.03084 -0.01892
2337 522864.000   28.079277981  112.983590296    39.2631   1  20   0.0021   0.0025   0.0063  -0.0011   0.0022  -0.0014   0.00    4.4   -0.00647   -0.02125    0.00182   0.12758  0.13068  0.09577 -0.01988  0.03077 -0.01893
2337 522865.000   28.079277984  112.983590311    39.2575   1  20   0.0021   0.0025   0.0063  -0.0011   0.0022  -0.0014   0.00    4.4    0.00710    0.02365   -0.01285   0.12629  0.12946  0.09574 -0.02006  0.03071 -0.01895
2337 522866.000   28.079277984  112.983590298    39.2564   1  20   0.0021   0.0025   0.0063  -0.0011   0.0022  -0.0014   0.00    4.4   -0.00692   -0.02573    0.00946   0.12507  0.12829  0.09572 -0.02023  0.03068 -0.01897
2337 522867.000   28.079277994  112.983590296    39.2613   1  20   0.0021   0.0025   0.0063  -0.0011   0.0022  -0.0014   0.00    4.4    0.00890    0.02482    0.00104   0.12390  0.12718  0.09570 -0.02040  0.03065 -0.01899
2337 522868.000   28.079277983  112.983590309    39.2618   1  20   0.0021   0.0025   0.0063  -0.0011   0.0022  -0.0014   0.00    4.4   -0.01119   -0.02157   -0.00020   0.12278  0.12613  0.09568 -0.02058  0.03064 -0.01901
2337 522869.000   28.079277991  112.983590288    39.2592   1  20   0.0021   0.0025   0.0063  -0.0011   0.0022  -0.0014   0.00    4.4    0.01272    0.01684   -0.00472   0.12171  0.12512  0.09567 -0.02075  0.03064 -0.01903
2337 522870.000   28.079277980  112.983590296    39.2577   1  20   0.0021   0.0025   0.0063  -0.0011   0.0022  -0.0014   0.00    4.4   -0.01472   -0.01497    0.00132   0.12068  0.12416  0.09566 -0.02092  0.03064 -0.01905
2337 522871.000   28.079278000  112.983590309    39.2580   1  20   0.0021   0.0025   0.0063  -0.0011   0.0022  -0.0014   0.00    4.4    0.01867    0.01713   -0.00047   0.11970  0.12325  0.09565 -0.02109  0.03065 -0.01907
2337 522872.000   28.079277993  112.983590313    39.2574   1  20   0.0021   0.0025   0.0063  -0.0011   0.0022  -0.0014   0.00    4.4   -0.01982   -0.01592   -0.00083   0.11876  0.12237  0.09564 -0.02126  0.03066 -0.01910
2337 522873.000   28.079278001  112.983590294    39.2553   1  20   0.0021   0.0025   0.0063  -0.0010   0.0022  -0.0014   0.00    4.0    0.02093    0.01251    0.00031   0.11786  0.12154  0.09564 -0.02142  0.03067 -0.01912
2337 522874.000   28.079277976  112.983590306    39.2613   1  20   0.0021   0.0025   0.0063  -0.0010   0.0022  -0.0014   0.00    4.0   -0.02579   -0.00993    0.01140   0.11700  0.12074  0.09563 -0.02158  0.03069 -0.01914
2337 522875.000   28.079277984  112.983590302    39.2587   1  20   0.0021   0.0025   0.0063  -0.0010   0.0022  -0.0014   0.00    4.1    0.02682    0.00912   -0.01552   0.11617  0.11998  0.09563 -0.02175  0.03071 -0.01916
2337 522876.000   28.079277995  112.983590296    39.2537   1  20   0.0021   0.0025   0.0063  -0.0010   0.0022  -0.0014   0.00    4.2   -0.02363   -0.01030    0.00416   0.11538  0.11925  0.09562 -0.02190  0.03073 -0.01918
2337 522877.000   28.079277988  112.983590307    39.2572   1  20   0.0021   0.0025   0.0063  -0.0010   0.0022  -0.0014   0.00    4.3    0.02142    0.01230    0.00347   0.11461  0.11855  0.09562 -0.02206  0.03075 -0.01920
2337 522878.000   28.079277999  112.983590276    39.2549   1  20   0.0021   0.0025   0.0063  -0.0010   0.0022  -0.0014   0.00    4.3   -0.01853   -0.01805   -0.00786   0.11388  0.11788  0.09561 -0.02221  0.03077 -0.01921
2337 522879.000   28.079277993  112.983590275    39.2497   1  20   0.0021   0.0025   0.0063  -0.0010   0.0022  -0.0014   0.00    4.3    0.01686    0.01736   -0.00309   0.11317  0.11724  0.09561 -0.02237  0.03079 -0.01923
2337 522880.000   28.079277984  112.983590300    39.2571   1  20   0.0021   0.0025   0.0063  -0.0010   0.0022  -0.0014   0.00    4.3   -0.01839   -0.01203    0.01747   0.11250  0.11663  0.09561 -0.02252  0.03081 -0.01925
2337 522881.000   28.079278006  112.983590295    39.2498   1  20   0.0021   0.0025   0.0063  -0.0011   0.0022  -0.0014   0.00    4.3    0.02264    0.01089   -0.02976   0.11185  0.11604  0.09560 -0.02266  0.03083 -0.01927
2337 522882.000   28.079277980  112.983590298    39.2530   1  20   0.0021   0.0025   0.0063  -0.0011   0.0022  -0.0014   0.00    4.3   -0.02760   -0.01033    0.03233   0.11122  0.11548  0.09560 -0.02281  0.03086 -0.01928
2337 522883.000   28.079277996  112.983590281    39.2513   1  20   0.0021   0.0025   0.0063  -0.0010   0.0022  -0.0014   0.00    3.0    0.03009    0.00827   -0.02643   0.11061  0.11494  0.09560 -0.02295  0.03088 -0.01930
2337 522884.000   28.079278002  112.983590280    39.2533   1  20   0.0021   0.0025   0.0063  -0.0010   0.0022  -0.0014   0.00    3.1   -0.02818   -0.00861    0.02660   0.11003  0.11442  0.09559 -0.02309  0.03090 -0.01931
2337 522885.000   28.079277973  112.983590284    39.2540   1  20   0.0021   0.0025   0.0063  -0.0010   0.0022  -0.0014   0.00    3.1    0.02104    0.00946   -0.02191   0.10947  0.11393  0.09559 -0.02323  0.03092 -0.01932
2337 522886.000   28.079277981  112.983590267    39.2489   1  20   0.0021   0.0025   0.0063  -0.0010   0.0022  -0.0014   0.00    3.1   -0.01867   -0.01273    0.00916   0.10893  0.11345  0.09559 -0.02337  0.03093 -0.01934
2337 522887.000   28.079277980  112.983590283    39.2507   1  20   0.0021   0.0025   0.0063  -0.0010   0.0022  -0.0014   0.00    3.2    0.01811    0.01579   -0.00419   0.10842  0.11300  0.09558 -0.02350  0.03095 -0.01935
2337 522888.000   28.079277983  112.983590294    39.2472   1  20   0.0021   0.0025   0.0063  -0.0011   0.0022  -0.0014   0.00    3.2   -0.01706   -0.01347   -0.00319   0.10792  0.11256  0.09558 -0.02364  0.03097 -0.01936
2337 522889.000   28.079277987  112.983590278    39.2474   1  20   0.0021   0.0025   0.0063  -0.0011   0.0022  -0.0014   0.00    3.2    0.01755    0.00999    0.00342   0.10743  0.11214  0.09558 -0.02377  0.03099 -0.01937
2337 522890.000   28.079277985  112.983590278    39.2526   1  20   0.0021   0.0025   0.0063  -0.0011   0.0022  -0.0014   0.00    3.3   -0.01764   -0.00969    0.00704   0.10697  0.11173  0.09557 -0.02390  0.03100 -0.01938
2337 522891.000   28.079277994  112.983590273    39.2495   1  20   0.0021   0.0025   0.0063  -0.0011   0.0022  -0.0014   0.00    3.3    0.01929    0.00860   -0.01240   0.10652  0.11134  0.09557 -0.02402  0.03102 -0.01939
2337 522892.000   28.079277986  112.983590260    39.2492   1  20   0.0021   0.0025   0.0063  -0.0011   0.0022  -0.0014   0.00    3.3   -0.02056   -0.01122    0.01030   0.10609  0.11097  0.09557 -0.02415  0.03104 -0.01940
2337 522893.000   28.079277992  112.983590274    39.2553   1  20   0.0021   0.0025   0.0063  -0.0011   0.0022  -0.0014   0.00    3.3    0.02138    0.01393    0.00288   0.10567  0.11061  0.09556 -0.02427  0.03105 -0.01941
2337 522894.000   28.079277970  112.983590286    39.2475   1  20   0.0021   0.0025   0.0063  -0.0011   0.0022  -0.0014   0.00    3.4   -0.02590   -0.01123   -0.01793   0.10527  0.11027  0.09556 -0.02439  0.03106 -0.01942
2337 522895.000   28.079277987  112.983590272    39.2443   1  20   0.0021   0.0025   0.0063  -0.0011   0.0022  -0.0014   0.00    3.4    0.02926    0.00809    0.00986   0.10488  0.10993  0.09556 -0.02450  0.03108 -0.01943
2337 522896.000   28.079277971  112.983590267    39.2468   1  20   0.0021   0.0025   0.0063  -0.0011   0.0022  -0.0014   0.00    3.4   -0.03216   -0.00876   -0.00360   0.10450  0.10962  0.09555 -0.02462  0.03109 -0.01944
2337 522897.000   28.079277964  112.983590261    39.2525   1  20   0.0021   0.0025   0.0063  -0.0011   0.0022  -0.0014   0.00    3.5    0.02987    0.00736    0.01398   0.10414  0.10931  0.09555 -0.02473  0.03110 -0.01945
2337 522898.000   28.079277981  112.983590283    39.2451   1  20   0.0021   0.0025   0.0063  -0.0011   0.0022  -0.0014   0.00    3.5   -0.02548   -0.00280   -0.02673   0.10379  0.10901  0.09555 -0.02485  0.03112 -0.01945
2337 522899.000   28.079277952  112.983590259    39.2470   1  20   0.0021   0.0025   0.0063  -0.0011   0.0022  -0.0014   0.00    3.5    0.01856   -0.00218    0.02732   0.10346  0.10873  0.09554 -0.02496  0.03113 -0.01946
2337 522900.000   28.079277971  112.983590267    39.2504   1  20   0.0021   0.0025   0.0063  -0.0011   0.0022  -0.0014   0.00    3.5   -0.01394    0.00395   -0.01719   0.10313  0.10846  0.09554 -0.02507  0.03114 -0.01947
2337 522901.000   28.079277966  112.983590259    39.2533   1  20   0.0021   0.0025   0.0063  -0.0011   0.0022  -0.0014   0.00    3.6    0.01260   -0.00560    0.02017   0.10281  0.10820  0.09554 -0.02517  0.03115 -0.01947
2337 522902.000   28.079277960  112.983590271    39.2457   1  20   0.0021   0.0025   0.0063  -0.0011   0.0022  -0.0014   0.00    3.6   -0.01374    0.00803   -0.03244   0.10251  0.10794  0.09553 -0.02528  0.03116 -0.01948
2337 522903.000   28.079277955  112.983590254    39.2474   1  20   0.0021   0.0025   0.0063  -0.0011   0.0022  -0.0014   0.00    3.6    0.01248   -0.01156    0.03196   0.10222  0.10770  0.09553 -0.02538  0.03117 -0.01948
2337 522904.000   28.079277958  112.983590272    39.2445   1  20   0.0021   0.0025   0.0063  -0.0011   0.0022  -0.0014   0.00    3.6   -0.01184    0.01522   -0.03349   0.10193  0.10747  0.09553 -0.02548  0.03118 -0.01949
2337 522905.000   28.079277977  112.983590247    39.2465   1  20   0.0021   0.0025   0.0063  -0.0011   0.0022  -0.0014   0.00    3.6    0.01611   -0.02024    0.03312   0.10166  0.10724  0.09552 -0.02558  0.03119 -0.01950
2337 522906.000   28.079277967  112.983590271    39.2498   1  20   0.0021   0.0025   0.0063  -0.0011   0.0022  -0.0014   0.00    3.7   -0.01835    0.02491   -0.02234   0.10139  0.10703  0.09552 -0.02568  0.03119 -0.01950
2337 522907.000   28.079277972  112.983590280    39.2489   1  20   0.0021   0.0025   0.0063  -0.0011   0.0022  -0.0014   0.00    3.7    0.01931   -0.02296    0.01730   0.10114  0.10682  0.09552 -0.02577  0.03120 -0.01951
2337 522908.000   28.079277956  112.983590265    39.2476   1  20   0.0021   0.0025   0.0063  -0.0011   0.0022  -0.0014   0.00    3.7   -0.02259    0.01993   -0.01743   0.10089  0.10662  0.09551 -0.02587  0.03121 -0.01951
2337 522909.000   28.079277976  112.983590245    39.2397   1  20   0.0021   0.0025   0.0063  -0.0011   0.0022  -0.0014   0.00    3.7    0.02680   -0.02371   -0.00004   0.10065  0.10642  0.09551 -0.02596  0.03122 -0.01951
2337 522910.000   28.079277974  112.983590256    39.2490   1  20   0.0021   0.0025   0.0063  -0.0011   0.0022  -0.0014   0.00    3.8   -0.02684    0.02553    0.01841   0.10042  0.10624  0.09551 -0.02605  0.03122 -0.01952
2337 522911.000   28.079277976  112.983590256    39.2395   1  20   0.0021   0.0025   0.0063  -0.0011   0.0022  -0.0014   0.00    3.8    0.02677   -0.02483   -0.03486   0.10020  0.10606  0.09551 -0.02614  0.03123 -0.01952
2337 522912.000   28.079277972  112.983590269    39.2374   1  20   0.0021   0.0025   0.0063  -0.0011   0.0022  -0.0014   0.00    3.8   -0.02717    0.02652    0.02666   0.09998  0.10589  0.09550 -0.02623  0.03124 -0.01953
2337 522913.000   28.079277965  112.983590282    39.2434   1  20   0.0021   0.0025   0.0063  -0.0011   0.0022  -0.0014   0.00    3.8    0.02520   -0.02320   -0.01128   0.09977  0.10572  0.09550 -0.02632  0.03124 -0.01953
2337 522914.000   28.079277973  112.983590249    39.2376   1  20   0.0021   0.0025   0.0063  -0.0011   0.0022  -0.0014   0.00    3.9   -0.02308    0.01607   -0.00189   0.09957  0.10556  0.09550 -0.02640  0.03125 -0.01953
2337 522915.000   28.079277964  112.983590269    39.2405   1  20   0.0021   0.0025   0.0063  -0.0011   0.0022  -0.0014   0.00    3.9    0.02084   -0.01169    0.00769   0.09937  0.10541  0.09549 -0.02648  0.03125 -0.01954
2337 522916.000   28.079277966  112.983590272    39.2438   1  20   0.0021   0.0025   0.0063  -0.0011   0.0022  -0.0014   0.00    3.9   -0.02022    0.01191   -0.00055   0.09918  0.10526  0.09549 -0.02657  0.03126 -0.01954
2337 522917.000   28.079277967  112.983590264    39.2399   1  20   0.0021   0.0025   0.0063  -0.0011   0.0022  -0.0014   0.00    3.9    0.02018   -0.01304   -0.00724   0.09900  0.10511  0.09549 -0.02665  0.03126 -0.01954
2337 522918.000   28.079277957  112.983590276    39.2389   1  20   0.0021   0.0025   0.0063  -0.0011   0.0022  -0.0014   0.00    3.9   -0.02209    0.01492    0.00446   0.09882  0.10498  0.09548 -0.02673  0.03127 -0.01954
2337 522919.000   28.079277961  112.983590273    39.2431   1  20   0.0021   0.0025   0.0063  -0.0011   0.0022  -0.0014   0.00    4.0    0.02269   -0.01509    0.00445   0.09865  0.10484  0.09548 -0.02680  0.03127 -0.01955
2337 522920.000   28.079277962  112.983590291    39.2466   1  20   0.0021   0.0025   0.0063  -0.0011   0.0022  -0.0014   0.00    4.0   -0.02204    0.01832    0.00258   0.09849  0.10471  0.09548 -0.02688  0.03127 -0.01955
2337 522921.000   28.079277966  112.983590248    39.2391   1  20   0.0021   0.0025   0.0063  -0.0011   0.0022  -0.0014   0.00    4.0    0.02236   -0.02645   -0.01700   0.09833  0.10459  0.09547 -0.02696  0.03128 -0.01955
2337 522922.000   28.079277952  112.983590269    39.2391   1  20   0.0021   0.0025   0.0063  -0.0011   0.0022  -0.0014   0.00    4.0   -0.02490    0.02989    0.01518   0.09817  0.10447  0.09547 -0.02703  0.03128 -0.01955
2337 522923.000   28.079277965  112.983590277    39.2395   1  20   0.0021   0.0025   0.0063  -0.0011   0.0022  -0.0014   0.00    4.0    0.02722   -0.02743   -0.01234   0.09802  0.10436  0.09547 -0.02710  0.03129 -0.01956
2337 522924.000   28.079277967  112.983590271    39.2434   1  20   0.0021   0.0025   0.0063  -0.0011   0.0022  -0.0014   0.00    4.0   -0.02614    0.02549    0.01825   0.09787  0.10425  0.09546 -0.02717  0.03129 -0.01956
2337 522925.000   28.079277961  112.983590268    39.2417   1  20   0.0021   0.0025   0.0063  -0.0011   0.0022  -0.0014   0.00    4.1    0.02421   -0.02532   -0.01928   0.09773  0.10414  0.09546 -0.02724  0.03129 -0.01956
2337 522926.000   28.079277942  112.983590276    39.2412   1  20   0.0021   0.0025   0.0063  -0.0011   0.0022  -0.0014   0.00    4.1   -0.02779    0.02602    0.01564   0.09760  0.10404  0.09546 -0.02731  0.03130 -0.01956
2337 522927.000   28.079277952  112.983590281    39.2402   1  20   0.0021   0.0025   0.0063  -0.0011   0.0022  -0.0014   0.00    4.1    0.02933   -0.02422   -0.01528   0.09747  0.10394  0.09545 -0.02738  0.03130 -0.01956
2337 522928.000   28.079277955  112.983590283    39.2437   1  20   0.0021   0.0025   0.0063  -0.0011   0.0022  -0.0014   0.00    4.1   -0.02802    0.02384    0.01999   0.09734  0.10384  0.09545 -0.02744  0.03130 -0.01957
2337 522929.000   28.079277958  112.983590288    39.2480   1  20   0.0021   0.0025   0.0063  -0.0011   0.0022  -0.0014   0.00    4.1    0.02804   -0.02218   -0.00930   0.09722  0.10375  0.09545 -0.02751  0.03130 -0.01957
2337 522930.000   28.079277948  112.983590281    39.2470   1  20   0.0021   0.0025   0.0063  -0.0011   0.0022  -0.0014   0.00    4.1   -0.02974    0.02019    0.00577   0.09710  0.10366  0.09545 -0.02757  0.03131 -0.01957
2337 522931.000   28.079277965  112.983590262    39.2420   1  20   0.0021   0.0025   0.0063  -0.0011   0.0022  -0.0014   0.00    4.1    0.03306   -0.02329   -0.01439   0.09698  0.10358  0.09544 -0.02763  0.03131 -0.01957
2337 522932.000   28.079277964  112.983590250    39.2400   1  20   0.0021   0.0025   0.0062  -0.0011   0.0022  -0.0014   0.00    4.1   -0.03269    0.02043    0.00873   0.09687  0.10350  0.09544 -0.02770  0.03131 -0.01957
2337 522933.000   28.079277953  112.983590270    39.2394   1  20   0.0021   0.0025   0.0062  -0.0011   0.0022  -0.0014   0.00    4.1    0.02970   -0.01605   -0.00847   0.09676  0.10342  0.09544 -0.02776  0.03131 -0.01957
2337 522934.000   28.079277953  112.983590276    39.2412   1  20   0.0021   0.0025   0.0062  -0.0011   0.0022  -0.0014   0.00    4.1   -0.02913    0.01677    0.01077   0.09666  0.10334  0.09543 -0.02782  0.03131 -0.01957
2337 522935.000   28.079277952  112.983590264    39.2386   1  20   0.0021   0.0025   0.0062  -0.0011   0.0022  -0.0014   0.00    4.1    0.02825   -0.01866   -0.01441   0.09656  0.10327  0.09543 -0.02787  0.03131 -0.01957
2337 522936.000   28.079277958  112.983590278    39.2422   1  20   0.0021   0.0025   0.0062  -0.0011   0.0022  -0.0014   0.00    4.1   -0.02625    0.02093    0.01950   0.09646  0.10319  0.09543 -0.02793  0.03132 -0.01957
2337 522937.000   28.079277966  112.983590274    39.2433   1  20   0.0021   0.0025   0.0062  -0.0011   0.0022  -0.0014   0.00    4.1    0.02739   -0.02110   -0.01502   0.09636  0.10313  0.09542 -0.02799  0.03132 -0.01958
2337 522938.000   28.079277958  112.983590275    39.2451   1  20   0.0021   0.0025   0.0062  -0.0011   0.0022  -0.0014   0.00    4.1   -0.02852    0.02064    0.01648   0.09627  0.10306  0.09542 -0.02804  0.03132 -0.01958
2337 522939.000   28.079277944  112.983590275    39.2466   1  20   0.0021   0.0025   0.0062  -0.0011   0.0022  -0.0014   0.00    4.0    0.02472   -0.02004   -0.01156   0.09618  0.10300  0.09542 -0.02810  0.03132 -0.01958
2337 522940.000   28.079277955  112.983590294    39.2472   1  20   0.0021   0.0025   0.0062  -0.0011   0.0022  -0.0014   0.00    4.0   -0.02169    0.02329    0.01113   0.09610  0.10293  0.09541 -0.02815  0.03132 -0.01958
2337 522941.000   28.079277956  112.983590273    39.2444   1  20   0.0021   0.0025   0.0062  -0.0011   0.0022  -0.0014   0.00    4.0    0.02147   -0.02694   -0.01518   0.09601  0.10287  0.09541 -0.02820  0.03132 -0.01958
2337 522942.000   28.079277959  112.983590278    39.2388   1  20   0.0021   0.0025   0.0062  -0.0011   0.0022  -0.0014   0.00    4.0   -0.02033    0.02737    0.00259   0.09593  0.10282  0.09541 -0.02825  0.03132 -0.01958
2337 522943.000   28.079277962  112.983590269    39.2417   1  20   0.0021   0.0025   0.0062  -0.0011   0.0022  -0.0014   0.00    4.0    0.02056   -0.02858    0.00380   0.09585  0.10276  0.09541 -0.02830  0.03132 -0.01958
2337 522944.000   28.079277953  112.983590261    39.2390   1  20   0.0021   0.0025   0.0062  -0.0011   0.0022  -0.0014   0.00    4.0   -0.02217    0.02653   -0.00883   0.09578  0.10271  0.09540 -0.02835  0.03132 -0.01958
2337 522945.000   28.079277961  112.983590271    39.2400   1  20   0.0021   0.0025   0.0062  -0.0011   0.0022  -0.0014   0.00    4.0    0.02361   -0.02425    0.00988   0.09571  0.10266  0.09540 -0.02840  0.03132 -0.01958
2337 522946.000   28.079277955  112.983590276    39.2390   1  20   0.0021   0.0025   0.0062  -0.0011   0.0022  -0.0014   0.00    4.0   -0.02471    0.02499   -0.01066   0.09564  0.10261  0.09540 -0.02845  0.03133 -0.01958
2337 522947.000   28.079277952  112.983590278    39.2441   1  20   0.0021   0.0025   0.0062  -0.0011   0.0022  -0.0014   0.00    4.0    0.02372   -0.02431    0.01910   0.09557  0.10256  0.09539 -0.02849  0.03133 -0.01958
2337 522948.000   28.079277952  112.983590275    39.2424   1  20   0.0021   0.0025   0.0062  -0.0011   0.0022  -0.0014   0.00    4.0   -0.02328    0.02351   -0.02018   0.09550  0.10251  0.09539 -0.02854  0.03133 -0.01958
2337 522949.000   28.079277957  112.983590267    39.2407   1  20   0.0021   0.0025   0.0062  -0.0011   0.0022  -0.0014   0.00    4.0    0.02412   -0.02489    0.01438   0.09544  0.10247  0.09539 -0.02858  0.03133 -0.01958
2337 522950.000   28.079277948  112.983590277    39.2466   1  20   0.0021   0.0025   0.0062  -0.0011   0.0022  -0.0014   0.00    4.0   -0.02594    0.02646   -0.00093   0.09537  0.10243  0.09538 -0.02863  0.03133 -0.01958
2337 522951.000   28.079277949  112.983590264    39.2411   1  20   0.0021   0.0025   0.0062  -0.0011   0.0022  -0.0014   0.00    4.0    0.02571   -0.02843   -0.01031   0.09531  0.10238  0.09538 -0.02867  0.03133 -0.01958
2337 522952.000   28.079277950  112.983590270    39.2409   1  20   0.0021   0.0025   0.0062  -0.0011   0.0022  -0.0014   0.00    4.0   -0.02484    0.02902    0.00897   0.09526  0.10235  0.09538 -0.02871  0.03133 -0.01958
2337 522953.000   28.079277955  112.983590291    39.2395   1  20   0.0021   0.0025   0.0062  -0.0011   0.0022  -0.0014   0.00    4.0    0.02546   -0.02437   -0.01052   0.09520  0.10231  0.09537 -0.02876  0.03133 -0.01958
2337 522954.000   28.079277941  112.983590267    39.2415   1  20   0.0021   0.0025   0.0062  -0.0011   0.0022  -0.0014   0.00    4.0   -0.02803    0.01912    0.01308   0.09515  0.10227  0.09537 -0.02880  0.03133 -0.01958
2337 522955.000   28.079277947  112.983590288    39.2428   1  20   0.0021   0.0025   0.0062  -0.0011   0.0022  -0.0014   0.00    4.0    0.02867   -0.01450   -0.00889   0.09509  0.10223  0.09537 -0.02884  0.03133 -0.01958
2337 522956.000   28.079277948  112.983590305    39.2442   1  20   0.0021   0.0025   0.0062  -0.0011   0.0022  -0.0014   0.00    4.0   -0.02788    0.01733    0.01017   0.09504  0.10220  0.09537 -0.02888  0.03133 -0.01958
2337 522957.000   28.079277943  112.983590271    39.2387   1  20   0.0021   0.0025   0.0062  -0.0011   0.0022  -0.0014   0.00    4.0    0.02624   -0.02339   -0.01950   0.09499  0.10217  0.09536 -0.02892  0.03133 -0.01958
2337 522958.000   28.079277958  112.983590284    39.2391   1  20   0.0021   0.0025   0.0062  -0.0011   0.0022  -0.0014   0.00    4.0   -0.02237    0.02522    0.01797   0.09495  0.10213  0.09536 -0.02895  0.03133 -0.01958
2337 522959.000   28.079277953  112.983590282    39.2380   1  20   0.0021   0.0025   0.0062  -0.0011   0.0022  -0.0014   0.00    4.0    0.02073   -0.02488   -0.01767   0.09490  0.10210  0.09536 -0.02899  0.03133 -0.01958
2337 522960.000   28.079277939  112.983590276    39.2367   1  20   0.0021   0.0025   0.0062  -0.0011   0.0022  -0.0014   0.00    4.0   -0.02333    0.02307    0.01277   0.09486  0.10207  0.09535 -0.02903  0.03133 -0.01958
2337 522961.000   28.079277950  112.983590278    39.2377   1  20   0.0021   0.0025   0.0062  -0.0011   0.0022  -0.0014   0.00    4.0    0.02535   -0.02212   -0.00897   0.09481  0.10204  0.09535 -0.02906  0.03133 -0.01958
2337 522962.000   28.079277959  112.983590266    39.2383   1  20   0.0021   0.0025   0.0062  -0.0011   0.0022  -0.0014   0.00    4.0   -0.02286    0.01929    0.00871   0.09477  0.10202  0.09535 -0.02910  0.03133 -0.01958
2337 522963.000   28.079277959  112.983590278    39.2387   1  20   0.0021   0.0025   0.0062  -0.0011   0.0022  -0.0014   0.00    4.0    0.02237   -0.01653   -0.00670   0.09473  0.10199  0.09534 -0.02914  0.03132 -0.01958
2337 522964.000   28.079277957  112.983590291    39.2393   1  20   0.0021   0.0025   0.0062  -0.0011   0.0022  -0.0014   0.00    4.0   -0.02341    0.01866    0.01344   0.09469  0.10196  0.09534 -0.02917  0.03132 -0.01958
2337 522965.000   28.079277964  112.983590275    39.2359   1  20   0.0021   0.0025   0.0062  -0.0011   0.0022  -0.0014   0.00    4.0    0.02443   -0.02115   -0.01846   0.09465  0.10194  0.09534 -0.02920  0.03132 -0.01958
2337 522966.000   28.079277956  112.983590284    39.2322   1  20   0.0021   0.0025   0.0062  -0.0011   0.0022  -0.0014   0.00    4.0   -0.02571    0.02225    0.00897   0.09462  0.10191  0.09533 -0.02924  0.03132 -0.01958
2337 522967.000   28.079277961  112.983590275    39.2332   1  20   0.0021   0.0025   0.0062  -0.0011   0.0022  -0.0014   0.00    4.0    0.02646   -0.02337   -0.00557   0.09458  0.10189  0.09533 -0.02927  0.03132 -0.01958
2337 522968.000   28.079277961  112.983590274    39.2334   1  20   0.0021   0.0025   0.0062  -0.0011   0.0022  -0.0014   0.00    4.0   -0.02606    0.02247    0.00509   0.09455  0.10187  0.09533 -0.02930  0.03132 -0.01958
2337 522969.000   28.079277949  112.983590286    39.2335   1  20   0.0021   0.0025   0.0062  -0.0011   0.0022  -0.0014   0.00    4.0    0.02301   -0.01955   -0.00425   0.09452  0.10185  0.09533 -0.02933  0.03132 -0.01958
2337 522970.000   28.079277961  112.983590282    39.2358   1  20   0.0021   0.0025   0.0062  -0.0011   0.0022  -0.0014   0.00    4.0   -0.02007    0.01825    0.00806   0.09448  0.10183  0.09532 -0.02936  0.03132 -0.01958
2337 522971.000   28.079277960  112.983590268    39.2321   1  20   0.0021   0.0025   0.0062  -0.0011   0.0022  -0.0014   0.00    3.9    0.01949   -0.02036   -0.01429   0.09445  0.10181  0.09532 -0.02939  0.03132 -0.01958
2337 522972.000   28.079277942  112.983590296    39.2394   1  20   0.0021   0.0025   0.0062  -0.0011   0.0022  -0.0014   0.00    3.9   -0.02297    0.02513    0.02665   0.09442  0.10179  0.09532 -0.02942  0.03132 -0.01958
2337 522973.000   28.079277960  112.983590294    39.2359   1  20   0.0021   0.0025   0.0062  -0.0011   0.0022  -0.0014   0.00    3.9    0.02645   -0.02467   -0.03029   0.09440  0.10177  0.09531 -0.02945  0.03132 -0.01958
2337 522974.000   28.079277967  112.983590288    39.2361   1  20   0.0021   0.0025   0.0062  -0.0011   0.0022  -0.0014   0.00    3.9   -0.02439    0.02262    0.02680   0.09437  0.10175  0.09531 -0.02948  0.03132 -0.01958
2337 522975.000   28.079277971  112.983590276    39.2359   1  20   0.0021   0.0025   0.0062  -0.0011   0.0022  -0.0014   0.00    3.9    0.02480   -0.02419   -0.02357   0.09434  0.10173  0.09531 -0.02951  0.03132 -0.01958
2337 522976.000   28.079277961  112.983590275    39.2366   1  20   0.0021   0.0025   0.0062  -0.0011   0.0022  -0.0014   0.00    3.9   -0.02646    0.02331    0.02175   0.09432  0.10171  0.09530 -0.02954  0.03132 -0.01958
2337 522977.000   28.079277950  112.983590291    39.2337   1  20   0.0021   0.0025   0.0062  -0.0011   0.0022  -0.0014   0.00    3.9    0.02333   -0.01956   -0.02449   0.09429  0.10170  0.09530 -0.02956  0.03131 -0.01958
2337 522978.000   28.079277962  112.983590270    39.2382   1  20   0.0021   0.0025   0.0062  -0.0011   0.0022  -0.0014   0.00    3.9   -0.02017    0.01475    0.03015   0.09427  0.10168  0.09530 -0.02959  0.03131 -0.01958
2337 522979.000   28.079277961  112.983590286    39.2369   1  20   0.0021   0.0025   0.0062  -0.0011   0.0022  -0.0014   0.00    3.9    0.01947   -0.01087   -0.02894   0.09424  0.10167  0.09530 -0.02962  0.03131 -0.01958
2337 522980.000   28.079277954  112.983590283    39.2389   1  20   0.0021   0.0025   0.0062  -0.0011   0.0022  -0.0014   0.00    3.9   -0.02036    0.00964    0.02886   0.09422  0.10165  0.09529 -0.02964  0.03131 -0.01958
2337 522981.000   28.079277955  112.983590301    39.2383   1  20   0.0021   0.0025   0.0062  -0.0011   0.0022  -0.0014   0.00    3.9    0.02010   -0.00549   -0.02621   0.09420  0.10164  0.09529 -0.02967  0.03131 -0.01958
2337 522982.000   28.079277954  112.983590274    39.2371   1  20   0.0021   0.0025   0.0062  -0.0011   0.0022  -0.0014   0.00    3.9   -0.01996   -0.00028    0.02040   0.09418  0.10163  0.09529 -0.02969  0.03131 -0.01958
2337 522983.000   28.079277949  112.983590286    39.2345   1  20   0.0021   0.0025   0.0062  -0.0011   0.0022  -0.0014   0.00    3.9    0.01838    0.00305   -0.02251   0.09416  0.10161  0.09528 -0.02972  0.03131 -0.01958
2337 522984.000   28.079277952  112.983590302    39.2397   1  20   0.0021   0.0025   0.0062  -0.0011   0.0022  -0.0014   0.00    3.9   -0.01727   -0.00031    0.02957   0.09414  0.10160  0.09528 -0.02974  0.03131 -0.01958
2337 522985.000   28.079277959  112.983590272    39.2322   1  20   0.0021   0.0025   0.0062  -0.0011   0.0022  -0.0014   0.00    3.9    0.01843   -0.00508   -0.04048   0.09412  0.10159  0.09528 -0.02977  0.03131 -0.01958
2337 522986.000   28.079277958  112.983590271    39.2308   1  20   0.0021   0.0025   0.0062  -0.0011   0.0022  -0.0014   0.00    3.9   -0.01825    0.00417    0.03296   0.09410  0.10158  0.09527 -0.02979  0.03131 -0.01958
2337 522987.000   28.079277955  112.983590277    39.2325   1  20   0.0021   0.0025   0.0062  -0.0011   0.0022  -0.0014   0.00    3.9    0.01710   -0.00235   -0.02527   0.09409  0.10156  0.09527 -0.02981  0.03130 -0.01958
2337 522988.000   28.079277966  112.983590283    39.2332   1  20   0.0021   0.0025   0.0062  -0.0011   0.0022  -0.0014   0.00    3.9   -0.01425    0.00298    0.02316   0.09407  0.10155  0.09527 -0.02984  0.03130 -0.01958
2337 522989.000   28.079277948  112.983590279    39.2314   1  20   0.0021   0.0025   0.0062  -0.0011   0.0022  -0.0014   0.00    3.9    0.00993   -0.00335   -0.02359   0.09405  0.10154  0.09527 -0.02986  0.03130 -0.01957
2337 522990.000   28.079277955  112.983590304    39.2369   1  20   0.0021   0.0025   0.0062  -0.0011   0.0022  -0.0014   0.00    3.9   -0.00804    0.00796    0.03115   0.09404  0.10153  0.09526 -0.02988  0.03130 -0.01957
2337 522991.000   28.079277951  112.983590271    39.2347   1  20   0.0021   0.0025   0.0062  -0.0011   0.0022  -0.0014   0.00    3.9    0.00685   -0.01391   -0.03172   0.09402  0.10152  0.09526 -0.02990  0.03130 -0.01957
2337 522992.000   28.079277959  112.983590294    39.2354   1  20   0.0021   0.0025   0.0062  -0.0011   0.0022  -0.0014   0.00    3.9   -0.00477    0.01777    0.02908   0.09401  0.10151  0.09526 -0.02992  0.03130 -0.01957
2337 522993.000   28.079277964  112.983590255    39.2304   1  20   0.0021   0.0025   0.0062  -0.0011   0.0022  -0.0014   0.00    3.9    0.00555   -0.02466   -0.03492   0.09399  0.10150  0.09525 -0.02995  0.03130 -0.01957
2337 522994.000   28.079277968  112.983590287    39.2325   1  20   0.0021   0.0025   0.0062  -0.0011   0.0022  -0.0014   0.00    3.9   -0.00432    0.02987    0.03459   0.09398  0.10150  0.09525 -0.02997  0.03130 -0.01957
2337 522995.000   28.079277955  112.983590279    39.2311   1  20   0.0021   0.0025   0.0062  -0.0011   0.0022  -0.0014   0.00    3.9    0.00128   -0.03029   -0.03283   0.09397  0.10149  0.09525 -0.02999  0.03130 -0.01957
2337 522996.000   28.079277953  112.983590268    39.2314   1  20   0.0021   0.0025   0.0062  -0.0011   0.0022  -0.0014   0.00    3.9   -0.00165    0.02702    0.02900   0.09396  0.10148  0.09524 -0.03001  0.03129 -0.01957
2337 522997.000   28.079277951  112.983590264    39.2374   1  20   0.0021   0.0025   0.0062  -0.0011   0.0022  -0.0014   0.00    3.9    0.00113   -0.02685   -0.01352   0.09394  0.10147  0.09524 -0.03003  0.03129 -0.01957
2337 522998.000   28.079277950  112.983590265    39.2360   1  20   0.0021   0.0025   0.0062  -0.0011   0.0022  -0.0014   0.00    3.9   -0.00127    0.02632    0.00856   0.09393  0.10146  0.09524 -0.03005  0.03129 -0.01957
2337 522999.000   28.079277951  112.983590280    39.2365   1  20   0.0021   0.0025   0.0062  -0.0011   0.0022  -0.0014   0.00    3.9    0.00135   -0.02281   -0.00643   0.09392  0.10146  0.09524 -0.03007  0.03129 -0.01957
2337 523000.000   28.079277961  112.983590277    39.2345   1  20   0.0021   0.0025   0.0062  -0.0011   0.0022  -0.0014   0.00    3.9    0.00092    0.02175    0.00161   0.09391  0.10145  0.09523 -0.03008  0.03129 -0.01957
2337 523001.000   28.079277950  112.983590306    39.2366   1  20   0.0021   0.0025   0.0062  -0.0011   0.0022  -0.0014   0.00    3.9   -0.00338   -0.01572    0.00294   0.09390  0.10144  0.09523 -0.03010  0.03129 -0.01957
2337 523002.000   28.079277958  112.983590270    39.2311   1  20   0.0021   0.0025   0.0062  -0.0011   0.0022  -0.0014   0.00    3.9    0.00513    0.00855   -0.01351   0.09389  0.10144  0.09523 -0.03012  0.03129 -0.01957
2337 523003.000   28.079277952  112.983590291    39.2324   1  20   0.0021   0.0025   0.0062  -0.0011   0.0022  -0.0014   0.00    3.9   -0.00631   -0.00443    0.01467   0.09388  0.10143  0.09522 -0.03014  0.03129 -0.01957
2337 523004.000   28.079277958  112.983590274    39.2286   1  20   0.0021   0.0025   0.0062  -0.0011   0.0022  -0.0014   0.00    3.9    0.00753    0.00110   -0.02021   0.09387  0.10142  0.09522 -0.03016  0.03128 -0.01957
2337 523005.000   28.079277967  112.983590283    39.2330   1  20   0.0021   0.0025   0.0062  -0.0011   0.0022  -0.0014   0.00    3.9   -0.00522    0.00044    0.02625   0.09386  0.10142  0.09522 -0.03018  0.03128 -0.01957
2337 523006.000   28.079277944  112.983590286    39.2292   1  20   0.0021   0.0025   0.0062  -0.0011   0.0022  -0.0014   0.00    3.9   -0.00028    0.00052   -0.03042   0.09386  0.10141  0.09521 -0.03019  0.03128 -0.01957
2337 523007.000   28.079277973  112.983590264    39.2293   1  20   0.0021   0.0025   0.0062  -0.0011   0.0022  -0.0014   0.00    3.9    0.00700   -0.00515    0.02679   0.09385  0.10141  0.09521 -0.03021  0.03128 -0.01957
2337 523008.000   28.079277961  112.983590269    39.2232   1  20   0.0021   0.0025   0.0062  -0.0011   0.0022  -0.0014   0.00    3.9   -0.00970    0.00647   -0.03507   0.09384  0.10140  0.09521 -0.03023  0.03128 -0.01957
2337 523009.000   28.079277971  112.983590277    39.2258   1  20   0.0021   0.0025   0.0062  -0.0011   0.0022  -0.0014   0.00    3.9    0.01180   -0.00537    0.03579   0.09383  0.10140  0.09521 -0.03024  0.03128 -0.01957
2337 523010.000   28.079277952  112.983590289    39.2288   1  20   0.0021   0.0025   0.0062  -0.0011   0.0022  -0.0014   0.00    3.9   -0.01584    0.00816   -0.02535   0.09383  0.10139  0.09520 -0.03026  0.03128 -0.01957
2337 523011.000   28.079277955  112.983590284    39.2307   1  20   0.0021   0.0025   0.0062  -0.0011   0.0022  -0.0014   0.00    3.9    0.01646   -0.00933    0.02525   0.09382  0.10139  0.09520 -0.03028  0.03127 -0.01957
2337 523012.000   28.079277952  112.983590282    39.2305   1  20   0.0021   0.0025   0.0062  -0.0011   0.0022  -0.0014   0.00    3.9   -0.01716    0.00910   -0.02237   0.09382  0.10138  0.09520 -0.03029  0.03127 -0.01956
2337 523013.000   28.079277945  112.983590286    39.2327   1  20   0.0021   0.0025   0.0062  -0.0011   0.0022  -0.0014   0.00    3.9    0.01554   -0.00853    0.02366   0.09381  0.10138  0.09519 -0.03031  0.03127 -0.01956
2337 523014.000   28.079277959  112.983590289    39.2296   1  20   0.0021   0.0025   0.0062  -0.0011   0.0022  -0.0014   0.00    3.9   -0.01237    0.00935   -0.02663   0.09380  0.10137  0.09519 -0.03032  0.03127 -0.01956
2337 523015.000   28.079277929  112.983590298    39.2337   1  20   0.0021   0.0025   0.0062  -0.0011   0.0022  -0.0014   0.00    3.8    0.00585   -0.00781    0.03124   0.09380  0.10137  0.09519 -0.03034  0.03127 -0.01956
2337 523016.000   28.079277951  112.983590279    39.2292   1  20   0.0021   0.0025   0.0062  -0.0011   0.0022  -0.0014   0.00    3.8   -0.00119    0.00420   -0.03616   0.09379  0.10137  0.09519 -0.03035  0.03127 -0.01956
2337 523017.000   28.079277946  112.983590282    39.2313   1  20   0.0021   0.0025   0.0062  -0.0011   0.0022  -0.0014   0.00    3.8    0.00024   -0.00389    0.03560   0.09379  0.10136  0.09518 -0.03037  0.03127 -0.01956
2337 523018.000   28.079277947  112.983590290    39.2267   1  20   0.0021   0.0025   0.0062  -0.0011   0.0022  -0.0014   0.00    3.8   -0.00016    0.00592   -0.03994   0.09378  0.10136  0.09518 -0.03038  0.03127 -0.01956
2337 523019.000   28.079277931  112.983590296    39.2302   1  20   0.0021   0.0025   0.0062  -0.0011   0.0022  -0.0014   0.00    3.8   -0.00319   -0.00525    0.04165   0.09378  0.10135  0.09518 -0.03040  0.03126 -0.01956
2337 523020.000   28.079277947  112.983590292    39.2318   1  20   0.0021   0.0025   0.0062  -0.0011   0.0022  -0.0014   0.00    3.8    0.00653    0.00494   -0.03310   0.09378  0.10135  0.09517 -0.03041  0.03126 -0.01956
2337 523021.000   28.079277939  112.983590302    39.2291   1  20   0.0021   0.0025   0.0062  -0.0011   0.0022  -0.0014   0.00    3.8   -0.00794   -0.00338    0.02328   0.09377  0.10135  0.09517 -0.03043  0.03126 -0.01956
2337 523022.000   28.079277941  112.983590288    39.2284   1  20   0.0021   0.0025   0.0062  -0.0011   0.0022  -0.0014   0.00    3.8    0.00818    0.00099   -0.02148   0.09377  0.10135  0.09517 -0.03044  0.03126 -0.01956
2337 523023.000   28.079277945  112.983590284    39.2307   1  20   0.0021   0.0025   0.0062  -0.0011   0.0022  -0.0014   0.00    3.8   -0.00733   -0.00102    0.02134   0.09377  0.10134  0.09516 -0.03046  0.03126 -0.01956
2337 523024.000   28.079277946  112.983590252    39.2274   1  20   0.0021   0.0025   0.0062  -0.0011   0.0022  -0.0014   0.00    3.8    0.00730   -0.00487   -0.02501   0.09376  0.10134  0.09516 -0.03047  0.03126 -0.01956
2337 523025.000   28.079277949  112.983590278    39.2291   1  20   0.0021   0.0025   0.0062  -0.0011   0.0022  -0.0014   0.00    3.8   -0.00669    0.01045    0.02372   0.09376  0.10134  0.09516 -0.03048  0.03126 -0.01956
2337 523026.000   28.079277937  112.983590282    39.2304   1  20   0.0021   0.0025   0.0062  -0.0011   0.0022  -0.0014   0.00    3.8    0.00395   -0.00922   -0.01811   0.09376  0.10133  0.09516 -0.03050  0.03125 -0.01956
2337 523027.000   28.079277938  112.983590291    39.2349   1  20   0.0021   0.0025   0.0062  -0.0011   0.0022  -0.0014   0.00    3.8   -0.00369    0.01053    0.02423   0.09375  0.10133  0.09515 -0.03051  0.03125 -0.01956
2337 523028.000   28.079277940  112.983590269    39.2295   1  20   0.0021   0.0025   0.0062  -0.0011   0.0022  -0.0014   0.00    3.8    0.00396   -0.01434   -0.03170   0.09375  0.10133  0.09515 -0.03052  0.03125 -0.01956
2337 523029.000   28.079277933  112.983590272    39.2268   1  20   0.0021   0.0025   0.0062  -0.0011   0.0022  -0.0014   0.00    3.8   -0.00511    0.01433    0.02264   0.09375  0.10133  0.09515 -0.03054  0.03125 -0.01956
2337 523030.000   28.079277954  112.983590303    39.2359   1  20   0.0021   0.0025   0.0062  -0.0011   0.0022  -0.0014   0.00    3.8    0.00950   -0.00785   -0.00172   0.09375  0.10132  0.09514 -0.03055  0.03125 -0.01956
2337 523031.000   28.079277941  112.983590271    39.2299   1  20   0.0021   0.0025   0.0062  -0.0011   0.0022  -0.0014   0.00    3.8   -0.01226    0.00142   -0.01086   0.09375  0.10132  0.09514 -0.03056  0.03125 -0.01956
2337 523032.000   28.079277958  112.983590264    39.2230   1  20   0.0021   0.0025   0.0062  -0.0011   0.0022  -0.0014   0.00    3.8    0.01588   -0.00276   -0.00347   0.09374  0.10132  0.09514 -0.03057  0.03124 -0.01956
2337 523033.000   28.079277957  112.983590275    39.2289   1  20   0.0021   0.0025   0.0062  -0.0011   0.0022  -0.0014   0.00    3.8   -0.01590    0.00468    0.01489   0.09374  0.10132  0.09514 -0.03059  0.03124 -0.01956
2337 523034.000   28.079277943  112.983590296    39.2327   1  20   0.0021   0.0025   0.0062  -0.0011   0.0022  -0.0014   0.00    3.8    0.01248   -0.00027   -0.00597   0.09374  0.10132  0.09513 -0.03060  0.03124 -0.01955
2337 523035.000   28.079277937  112.983590281    39.2297   1  20   0.0021   0.0025   0.0062  -0.0011   0.0022  -0.0014   0.00    3.8   -0.01346   -0.00281   -0.00091   0.09374  0.10131  0.09513 -0.03061  0.03124 -0.01955
2337 523036.000   28.079277947  112.983590299    39.2333   1  20   0.0021   0.0025   0.0062  -0.0011   0.0022  -0.0014   0.00    3.8    0.01557    0.00628    0.00789   0.09374  0.10131  0.09513 -0.03062  0.03124 -0.01955
2337 523037.000   28.079277959  112.983590275    39.2261   1  20   0.0021   0.0025   0.0062  -0.0011   0.0021  -0.0014   0.00    3.8   -0.01279   -0.01079   -0.02101   0.09374  0.10131  0.09512 -0.03064  0.03124 -0.01955
2337 523038.000   28.079277950  112.983590287    39.2300   1  20   0.0021   0.0025   0.0062  -0.0011   0.0021  -0.0014   0.00    3.8    0.01080    0.01267    0.02619   0.09374  0.10131  0.09512 -0.03065  0.03124 -0.01955
2337 523039.000   28.079277961  112.983590289    39.2360   1  20   0.0021   0.0025   0.0062  -0.0011   0.0021  -0.0014   0.00    3.8   -0.00846   -0.01170   -0.01131   0.09374  0.10131  0.09512 -0.03066  0.03123 -0.01955
2337 523040.000   28.079277953  112.983590284    39.2309   1  20   0.0021   0.0025   0.0062  -0.0011   0.0021  -0.0014   0.00    3.8    0.00654    0.01039   -0.00069   0.09374  0.10131  0.09512 -0.03067  0.03123 -0.01955
2337 523041.000   28.079277962  112.983590288    39.2279   1  20   0.0021   0.0025   0.0062  -0.0011   0.0021  -0.0014   0.00    3.8   -0.00427   -0.00942   -0.00482   0.09374  0.10131  0.09511 -0.03068  0.03123 -0.01955
2337 523042.000   28.079277954  112.983590301    39.2341   1  20   0.0021   0.0025   0.0062  -0.0011   0.0021  -0.0014   0.00    3.8    0.00248    0.01187    0.01627   0.09374  0.10130  0.09511 -0.03069  0.03123 -0.01955
2337 523043.000   28.079277968  112.983590265    39.2246   1  20   0.0021   0.0025   0.0062  -0.0011   0.0021  -0.0013   0.00    3.8    0.00045   -0.01862   -0.03276   0.09374  0.10130  0.09511 -0.03071  0.03123 -0.01955
2337 523044.000   28.079277953  112.983590304    39.2328   1  20   0.0021   0.0025   0.0062  -0.0011   0.0021  -0.0013   0.00    3.8   -0.00343    0.02536    0.04491   0.09374  0.10130  0.09510 -0.03072  0.03123 -0.01955
2337 523045.000   28.079277968  112.983590289    39.2316   1  20   0.0021   0.0025   0.0063  -0.0011   0.0021  -0.0013   0.00    3.8    0.00626   -0.02723   -0.04166   0.09374  0.10130  0.09510 -0.03073  0.03123 -0.01955
2337 523046.000   28.079277960  112.983590287    39.2397   1  20   0.0021   0.0026   0.0063  -0.0011   0.0020  -0.0013   0.00    3.8   -0.00753    0.02558    0.05195   0.09374  0.10130  0.09510 -0.03074  0.03122 -0.01955
2337 523047.000   28.079277964  112.983590267    39.2345   1  20   0.0021   0.0026   0.0063  -0.0011   0.0020  -0.0013   0.00    4.1    0.00768   -0.02704   -0.05713   0.09374  0.10133  0.09518 -0.03078  0.03106 -0.01949
2337 523048.000   28.079277974  112.983590268    39.2245   1  20   0.0021   0.0025   0.0062  -0.0011   0.0021  -0.0013   0.00    4.1   -0.00557    0.02867    0.02750   0.09374  0.10131  0.09513 -0.03078  0.03115 -0.01952
2337 523049.000   28.079277966  112.983590303    39.2295   1  20   0.0021   0.0025   0.0062  -0.0011   0.0021  -0.0013   0.00    4.1    0.00366   -0.02146   -0.01305   0.09374  0.10131  0.09511 -0.03078  0.03118 -0.01953
2337 523050.000   28.079277985  112.983590268    39.2282   1  20   0.0021   0.0025   0.0062  -0.0011   0.0021  -0.0013   0.00    4.1    0.00039    0.01539    0.00685   0.09374  0.10130  0.09510 -0.03079  0.03119 -0.01954
2337 523051.000   28.079277980  112.983590273    39.2306   1  20   0.0021   0.0025   0.0062  -0.0011   0.0021  -0.0014   0.00    4.1   -0.00161   -0.01419   -0.00117   0.09374  0.10130  0.09509 -0.03080  0.03120 -0.01954
2337 523052.000   28.079277958  112.983590278    39.2269   1  20   0.0021   0.0025   0.0062  -0.0011   0.0021  -0.0014   0.00    4.1   -0.00317    0.01505   -0.00648   0.09374  0.10130  0.09508 -0.03081  0.03120 -0.01954
